{"businesses": [{"id": "UYryiA40L6yj2JX8YZ4G0Q", "alias": "joe-bennys-baltimore", "name": "Joe Benny's", "image_url": "https://s3-media3.fl.yelpcdn.com/bphoto/letL6W2cWVKe402n-2cqeg/o.jpg", "is_closed": false, "url": "https://www.yelp.com/biz/joe-bennys-baltimore?adjust_creative=gcWurbqhaNOmVD7ZGHDSeg&utm_campaign=yelp_api_v3&utm_medium=api_v3_business_search&utm_source=gcWurbqhaNOmVD7ZGHDSeg", "review_count": 519, "categories": [{"alias": "italian", "title": "Italian"}, {"alias": "pizza", "title": "Pizza"}, {"alias": "beer_and_wine", "title": "Beer, Wine & Spirits"}], "rating": 4.5, "coordinates": {"latitude": 39.2858595235079, "longitude": -76.6014964189682}, "transactions": [], "price": "$$", "location": {"address1": "313 S High St", "address2": "", "address3": "", "city": "Baltimore", "zip_code": "21202", "country": "US", "state": "MD", "display_address": ["313 S High St", "Baltimore, MD 21202"]}, "phone": "+14438354866", "display_phone": "(443) 835-4866", "distance": 2311.3504242100676}, {"id": "6PLtSs9Bi4QDSNBM_u4fNg", "alias": "the-brewers-art-baltimore", "name": "The Brewer's Art", "image_url": "https://s3-media1.fl.yelpcdn.com/bphoto/dPtHW0dieyp5k1FZgzG13w/o.jpg", "is_closed": false, "url": "https://www.yelp.com/biz/the-brewers-art-baltimore?adjust_creative=gcWurbqhaNOmVD7ZGHDSeg&utm_campaign=yelp_api_v3&utm_medium=api_v3_business_search&utm_source=gcWurbqhaNOmVD7ZGHDSeg", "review_count": 925, "categories": [{"alias": "breweries", "title": "Breweries"}, {"alias": "modern_european", "title": "Modern European"}, {"alias": "belgian", "title": "Belgian"}], "rating": 4.0, "coordinates": {"latitude": 39.302825295486, "longitude": -76.616179918669}, "transactions": [], "price": "$$", "location": {"address1": "1106 N Charles St", "address2": "", "address3": "", "city": "Baltimore", "zip_code": "21201", "country": "US", "state": "MD", "display_address": ["1106 N Charles St", "Baltimore, MD 21201"]}, "phone": "+14105476925", "display_phone": "(410) 547-6925", "distance": 95.96451832850138}, {"id": "bfWsp7oqwlUaXMYpzXJoYQ", "alias": "bottega-baltimore", "name": "Bottega", "image_url": "https://s3-media4.fl.yelpcdn.com/bphoto/7FhvKFsP_y0RnIAu5UAR5w/o.jpg", "is_closed": false, "url": "https://www.yelp.com/biz/bottega-baltimore?adjust_creative=gcWurbqhaNOmVD7ZGHDSeg&utm_campaign=yelp_api_v3&utm_medium=api_v3_business_search&utm_source=gcWurbqhaNOmVD7ZGHDSeg", "review_count": 244, "categories": [{"alias": "italian", "title": "Italian"}, {"alias": "salad", "title": "Salad"}, {"alias": "tradamerican", "title": "American (Traditional)"}], "rating": 4.0, "coordinates": {"latitude": 39.3093374889491, "longitude": -76.6161986231021}, "transactions": ["restaurant_reservation", "delivery", "pickup"], "price": "$$", "location": {"address1": "1709 N Charles St", "address2": "", "address3": "", "city": "Baltimore", "zip_code": "21201", "country": "US", "state": "MD", "display_address": ["1709 N Charles St", "Baltimore, MD 21201"]}, "phone": "+14438352945", "display_phone": "(443) 835-2945", "distance": 746.2151577362415}, {"id": "cFkn0W83CQD4htuy6mdppg", "alias": "parts-and-labor-baltimore", "name": "Parts & Labor", "image_url": "https://s3-media2.fl.yelpcdn.com/bphoto/D7SuJWZHplh0jKjxjYrMyw/o.jpg", "is_closed": false, "url": "https://www.yelp.com/biz/parts-and-labor-baltimore?adjust_creative=gcWurbqhaNOmVD7ZGHDSeg&utm_campaign=yelp_api_v3&utm_medium=api_v3_business_search&utm_source=gcWurbqhaNOmVD7ZGHDSeg", "review_count": 426, "categories": [{"alias": "butcher", "title": "Butcher"}, {"alias": "tradamerican", "title": "American (Traditional)"}, {"alias": "bars", "title": "Bars"}], "rating": 4.0, "coordinates": {"latitude": 39.319472, "longitude": -76.62026}, "transactions": [], "price": "$$$", "location": {"address1": "2600 N Howard St", "address2": "", "address3": "", "city": "Baltimore", "zip_code": "21218", "country": "US", "state": "MD", "display_address": ["2600 N Howard St", "Baltimore, MD 21218"]}, "phone": "+14438738887", "display_phone": "(443) 873-8887", "distance": 1884.8364943339627}, {"id": "PtDb2vf4H3Zk04r3xzCjMw", "alias": "magdalena-restaurant-baltimore", "name": "Magdalena Restaurant", "image_url": "https://s3-media1.fl.yelpcdn.com/bphoto/BwkOJ8LVGtuJaT-CYhBzqQ/o.jpg", "is_closed": false, "url": "https://www.yelp.com/biz/magdalena-restaurant-baltimore?adjust_creative=gcWurbqhaNOmVD7ZGHDSeg&utm_campaign=yelp_api_v3&utm_medium=api_v3_business_search&utm_source=gcWurbqhaNOmVD7ZGHDSeg", "review_count": 53, "categories": [{"alias": "newamerican", "title": "American (New)"}, {"alias": "bars", "title": "Bars"}], "rating": 4.5, "coordinates": {"latitude": 39.303409504941, "longitude": -76.6127946699753}, "transactions": [], "price": "$$$$", "location": {"address1": "205 E Biddle St", "address2": "", "address3": "", "city": "Baltimore", "zip_code": "21202", "country": "US", "state": "MD", "display_address": ["205 E Biddle St", "Baltimore, MD 21202"]}, "phone": "+14105140303", "display_phone": "(410) 514-0303", "distance": 394.31091421867364}, {"id": "lJVvC3qMkoaou6ZYR_RA8w", "alias": "the-elephant-baltimore", "name": "The Elephant", "image_url": "https://s3-media3.fl.yelpcdn.com/bphoto/PVTPy1cvbAkDRk1E3r3rWw/o.jpg", "is_closed": false, "url": "https://www.yelp.com/biz/the-elephant-baltimore?adjust_creative=gcWurbqhaNOmVD7ZGHDSeg&utm_campaign=yelp_api_v3&utm_medium=api_v3_business_search&utm_source=gcWurbqhaNOmVD7ZGHDSeg", "review_count": 120, "categories": [{"alias": "newamerican", "title": "American (New)"}], "rating": 4.0, "coordinates": {"latitude": 39.300453, "longitude": -76.616236}, "transactions": [], "price": "$$$", "location": {"address1": "924 N Charles St", "address2": "", "address3": null, "city": "Baltimore", "zip_code": "21201", "country": "US", "state": "MD", "display_address": ["924 N Charles St", "Baltimore, MD 21201"]}, "phone": "+14434477878", "display_phone": "(443) 447-7878", "distance": 263.2765807081968}, {"id": "1C8QSqc-erkkyAUywh501A", "alias": "angies-seafood-baltimore", "name": "Angie's Seafood", "image_url": "https://s3-media1.fl.yelpcdn.com/bphoto/5hUi8A_NhsMO99qOuBZvCQ/o.jpg", "is_closed": false, "url": "https://www.yelp.com/biz/angies-seafood-baltimore?adjust_creative=gcWurbqhaNOmVD7ZGHDSeg&utm_campaign=yelp_api_v3&utm_medium=api_v3_business_search&utm_source=gcWurbqhaNOmVD7ZGHDSeg", "review_count": 180, "categories": [{"alias": "seafood", "title": "Seafood"}], "rating": 4.0, "coordinates": {"latitude": 39.2891417, "longitude": -76.5926887}, "transactions": ["delivery", "pickup"], "price": "$$", "location": {"address1": "1727 E Pratt St", "address2": null, "address3": "", "city": "Baltimore", "zip_code": "21231", "country": "US", "state": "MD", "display_address": ["1727 E Pratt St", "Baltimore, MD 21231"]}, "phone": "+14103420917", "display_phone": "(410) 342-0917", "distance": 2591.6818953965926}, {"id": "TPQmNAM2g1vmm2xCfhyEJw", "alias": "pratt-street-ale-house-baltimore", "name": "Pratt Street Ale House", "image_url": "https://s3-media2.fl.yelpcdn.com/bphoto/e2w62AJ3DzYcPa0K2-bD3A/o.jpg", "is_closed": false, "url": "https://www.yelp.com/biz/pratt-street-ale-house-baltimore?adjust_creative=gcWurbqhaNOmVD7ZGHDSeg&utm_campaign=yelp_api_v3&utm_medium=api_v3_business_search&utm_source=gcWurbqhaNOmVD7ZGHDSeg", "review_count": 592, "categories": [{"alias": "pubs", "title": "Pubs"}, {"alias": "tradamerican", "title": "American (Traditional)"}, {"alias": "breweries", "title": "Breweries"}], "rating": 3.5, "coordinates": {"latitude": 39.2865982055664, "longitude": -76.6181564331055}, "transactions": ["delivery", "pickup"], "price": "$$", "location": {"address1": "206 W Pratt St", "address2": "", "address3": "", "city": "Baltimore", "zip_code": "21201", "country": "US", "state": "MD", "display_address": ["206 W Pratt St", "Baltimore, MD 21201"]}, "phone": "+14102448900", "display_phone": "(410) 244-8900", "distance": 1788.8612904075196}, {"id": "YDnOyX_1wmBFeEzNmtTchw", "alias": "puerto-511-baltimore", "name": "Puerto 511", "image_url": "https://s3-media2.fl.yelpcdn.com/bphoto/9yAeHvwzkPRlyUGk6KlYIg/o.jpg", "is_closed": false, "url": "https://www.yelp.com/biz/puerto-511-baltimore?adjust_creative=gcWurbqhaNOmVD7ZGHDSeg&utm_campaign=yelp_api_v3&utm_medium=api_v3_business_search&utm_source=gcWurbqhaNOmVD7ZGHDSeg", "review_count": 267, "categories": [{"alias": "peruvian", "title": "Peruvian"}], "rating": 4.5, "coordinates": {"latitude": 39.29243, "longitude": -76.61706}, "transactions": ["restaurant_reservation"], "price": "$$", "location": {"address1": "102 W Clay St", "address2": "", "address3": "", "city": "Baltimore", "zip_code": "21201", "country": "US", "state": "MD", "display_address": ["102 W Clay St", "Baltimore, MD 21201"]}, "phone": "+14102448837", "display_phone": "(410) 244-8837", "distance": 1140.4334537903014}, {"id": "GOvVNYe2DwjGzwdVJIKw1Q", "alias": "wicked-sisters-tavern-baltimore", "name": "Wicked Sisters Tavern", "image_url": "https://s3-media4.fl.yelpcdn.com/bphoto/k_mmedQFBP1a6yWRrwDq1w/o.jpg", "is_closed": false, "url": "https://www.yelp.com/biz/wicked-sisters-tavern-baltimore?adjust_creative=gcWurbqhaNOmVD7ZGHDSeg&utm_campaign=yelp_api_v3&utm_medium=api_v3_business_search&utm_source=gcWurbqhaNOmVD7ZGHDSeg", "review_count": 206, "categories": [{"alias": "tradamerican", "title": "American (Traditional)"}], "rating": 4.0, "coordinates": {"latitude": 39.3350187678809, "longitude": -76.6363579077745}, "transactions": ["delivery", "pickup"], "price": "$$", "location": {"address1": "3845 Falls Rd", "address2": "", "address3": null, "city": "Baltimore", "zip_code": "21211", "country": "US", "state": "MD", "display_address": ["3845 Falls Rd", "Baltimore, MD 21211"]}, "phone": "+14108780884", "display_phone": "(410) 878-0884", "distance": 3952.8555341070023}, {"id": "CXVMsTPgi7xirHtsBbXQCQ", "alias": "cilantro-baltimore", "name": "Cilantro", "image_url": "https://s3-media2.fl.yelpcdn.com/bphoto/1MLA5NibwKhuEGl-Vb5CRw/o.jpg", "is_closed": false, "url": "https://www.yelp.com/biz/cilantro-baltimore?adjust_creative=gcWurbqhaNOmVD7ZGHDSeg&utm_campaign=yelp_api_v3&utm_medium=api_v3_business_search&utm_source=gcWurbqhaNOmVD7ZGHDSeg", "review_count": 47, "categories": [{"alias": "mediterranean", "title": "Mediterranean"}], "rating": 4.5, "coordinates": {"latitude": 39.28797, "longitude": -76.6143699}, "transactions": [], "price": "$", "location": {"address1": "30 Light St", "address2": "Ste 020", "address3": "", "city": "Baltimore", "zip_code": "21202", "country": "US", "state": "MD", "display_address": ["30 Light St", "Ste 020", "Baltimore, MD 21202"]}, "phone": "+14102447020", "display_phone": "(410) 244-7020", "distance": 1655.5857789057384}, {"id": "CQ79htRPD6yxi0Zg4sYTNw", "alias": "the-capital-grille-baltimore", "name": "The Capital Grille", "image_url": "https://s3-media1.fl.yelpcdn.com/bphoto/5fNWluI-__7Zo-1D6Gb2aw/o.jpg", "is_closed": false, "url": "https://www.yelp.com/biz/the-capital-grille-baltimore?adjust_creative=gcWurbqhaNOmVD7ZGHDSeg&utm_campaign=yelp_api_v3&utm_medium=api_v3_business_search&utm_source=gcWurbqhaNOmVD7ZGHDSeg", "review_count": 398, "categories": [{"alias": "steak", "title": "Steakhouses"}, {"alias": "seafood", "title": "Seafood"}, {"alias": "wine_bars", "title": "Wine Bars"}], "rating": 4.5, "coordinates": {"latitude": 39.28712, "longitude": -76.60821}, "transactions": ["restaurant_reservation"], "price": "$$$", "location": {"address1": "500 E Pratt St", "address2": null, "address3": "", "city": "Baltimore", "zip_code": "21202", "country": "US", "state": "MD", "display_address": ["500 E Pratt St", "Baltimore, MD 21202"]}, "phone": "+14437034064", "display_phone": "(443) 703-4064", "distance": 1892.1298988931972}, {"id": "w0GQP31RBBd-_o_3NZFIXw", "alias": "forno-baltimore", "name": "Forno", "image_url": "https://s3-media3.fl.yelpcdn.com/bphoto/kxVVJYPZfJCfNlSFj96H1Q/o.jpg", "is_closed": false, "url": "https://www.yelp.com/biz/forno-baltimore?adjust_creative=gcWurbqhaNOmVD7ZGHDSeg&utm_campaign=yelp_api_v3&utm_medium=api_v3_business_search&utm_source=gcWurbqhaNOmVD7ZGHDSeg", "review_count": 158, "categories": [{"alias": "wine_bars", "title": "Wine Bars"}, {"alias": "pizza", "title": "Pizza"}, {"alias": "italian", "title": "Italian"}], "rating": 4.0, "coordinates": {"latitude": 39.2898529, "longitude": -76.6207865}, "transactions": [], "price": "$$", "location": {"address1": "17 N Eutaw St", "address2": null, "address3": "", "city": "Baltimore", "zip_code": "21201", "country": "US", "state": "MD", "display_address": ["17 N Eutaw St", "Baltimore, MD 21201"]}, "phone": "+14438739427", "display_phone": "(443) 873-9427", "distance": 1442.699537160595}, {"id": "ieS_5zqxDHcWMCm8BKUYbg", "alias": "thames-street-oyster-house-baltimore", "name": "Thames Street Oyster House", "image_url": "https://s3-media2.fl.yelpcdn.com/bphoto/RWb0w95LdweUJ65a8eKJLg/o.jpg", "is_closed": false, "url": "https://www.yelp.com/biz/thames-street-oyster-house-baltimore?adjust_creative=gcWurbqhaNOmVD7ZGHDSeg&utm_campaign=yelp_api_v3&utm_medium=api_v3_business_search&utm_source=gcWurbqhaNOmVD7ZGHDSeg", "review_count": 1770, "categories": [{"alias": "seafood", "title": "Seafood"}, {"alias": "raw_food", "title": "Live/Raw Food"}, {"alias": "sandwiches", "title": "Sandwiches"}], "rating": 4.5, "coordinates": {"latitude": 39.28214, "longitude": -76.59162}, "transactions": [], "price": "$$", "location": {"address1": "1728 Thames St", "address2": "", "address3": "", "city": "Baltimore", "zip_code": "21231", "country": "US", "state": "MD", "display_address": ["1728 Thames St", "Baltimore, MD 21231"]}, "phone": "+14434497726", "display_phone": "(443) 449-7726", "distance": 3183.0994182719205}, {"id": "FH7du4qBJQyQ4_ubTQ3gmg", "alias": "maisys-baltimore", "name": "Maisy's", "image_url": "https://s3-media1.fl.yelpcdn.com/bphoto/lzxw_qr1OqFVw0yS5IRy_g/o.jpg", "is_closed": false, "url": "https://www.yelp.com/biz/maisys-baltimore?adjust_creative=gcWurbqhaNOmVD7ZGHDSeg&utm_campaign=yelp_api_v3&utm_medium=api_v3_business_search&utm_source=gcWurbqhaNOmVD7ZGHDSeg", "review_count": 358, "categories": [{"alias": "newamerican", "title": "American (New)"}, {"alias": "seafood", "title": "Seafood"}, {"alias": "pizza", "title": "Pizza"}], "rating": 4.0, "coordinates": {"latitude": 39.29281, "longitude": -76.61511}, "transactions": [], "price": "$$", "location": {"address1": "313 N Charles St", "address2": "", "address3": "", "city": "Baltimore", "zip_code": "21201", "country": "US", "state": "MD", "display_address": ["313 N Charles St", "Baltimore, MD 21201"]}, "phone": "+14432200150", "display_phone": "(443) 220-0150", "distance": 1112.2601175051664}, {"id": "HpSERym1f3QVYgDKbncCmA", "alias": "west-madison-craft-beer-bar-baltimore", "name": "West Madison Craft Beer Bar", "image_url": "https://s3-media1.fl.yelpcdn.com/bphoto/8UVC1PRskFamry-7-zsAYw/o.jpg", "is_closed": false, "url": "https://www.yelp.com/biz/west-madison-craft-beer-bar-baltimore?adjust_creative=gcWurbqhaNOmVD7ZGHDSeg&utm_campaign=yelp_api_v3&utm_medium=api_v3_business_search&utm_source=gcWurbqhaNOmVD7ZGHDSeg", "review_count": 68, "categories": [{"alias": "wine_bars", "title": "Wine Bars"}, {"alias": "beerbar", "title": "Beer Bar"}, {"alias": "tradamerican", "title": "American (Traditional)"}], "rating": 4.5, "coordinates": {"latitude": 39.29822, "longitude": -76.6206}, "transactions": ["pickup", "restaurant_reservation"], "price": "$$", "location": {"address1": "311 W Madison St", "address2": "", "address3": "", "city": "Baltimore", "zip_code": "21201", "country": "US", "state": "MD", "display_address": ["311 W Madison St", "Baltimore, MD 21201"]}, "phone": "+14439389109", "display_phone": "(443) 938-9109", "distance": 573.606505056233}, {"id": "ReNdW79g_1cxrgCJpFn7cA", "alias": "b-and-o-american-brasserie-baltimore", "name": "B&O American Brasserie", "image_url": "https://s3-media2.fl.yelpcdn.com/bphoto/STUupDhSp1i8JWXVrKjwtg/o.jpg", "is_closed": false, "url": "https://www.yelp.com/biz/b-and-o-american-brasserie-baltimore?adjust_creative=gcWurbqhaNOmVD7ZGHDSeg&utm_campaign=yelp_api_v3&utm_medium=api_v3_business_search&utm_source=gcWurbqhaNOmVD7ZGHDSeg", "review_count": 456, "categories": [{"alias": "newamerican", "title": "American (New)"}, {"alias": "brasseries", "title": "Brasseries"}, {"alias": "cocktailbars", "title": "Cocktail Bars"}], "rating": 3.5, "coordinates": {"latitude": 39.2899436853933, "longitude": -76.6153600656067}, "transactions": [], "price": "$$", "location": {"address1": "2 N Charles St", "address2": "", "address3": "", "city": "Baltimore", "zip_code": "21201", "country": "US", "state": "MD", "display_address": ["2 N Charles St", "Baltimore, MD 21201"]}, "phone": "+14436926172", "display_phone": "(443) 692-6172", "distance": 1425.6834901823001}, {"id": "WRz58h4VB9nadcyar4LGvQ", "alias": "wet-city-baltimore", "name": "Wet City", "image_url": "https://s3-media4.fl.yelpcdn.com/bphoto/0z4WfnLDIG7ZgzcGhLnYig/o.jpg", "is_closed": false, "url": "https://www.yelp.com/biz/wet-city-baltimore?adjust_creative=gcWurbqhaNOmVD7ZGHDSeg&utm_campaign=yelp_api_v3&utm_medium=api_v3_business_search&utm_source=gcWurbqhaNOmVD7ZGHDSeg", "review_count": 70, "categories": [{"alias": "beerbar", "title": "Beer Bar"}, {"alias": "pubs", "title": "Pubs"}, {"alias": "gastropubs", "title": "Gastropubs"}], "rating": 4.5, "coordinates": {"latitude": 39.3016090393066, "longitude": -76.6189498901367}, "transactions": [], "price": "$$", "location": {"address1": "223 W Chase St", "address2": "", "address3": "", "city": "Baltimore", "zip_code": "21201", "country": "US", "state": "MD", "display_address": ["223 W Chase St", "Baltimore, MD 21201"]}, "phone": "+14438736699", "display_phone": "(443) 873-6699", "distance": 189.85966622987993}, {"id": "EAEGzbnzCVKsGdGKqxar-g", "alias": "foraged-baltimore", "name": "Foraged", "image_url": "https://s3-media3.fl.yelpcdn.com/bphoto/-X8Bm5OMlap7Q0dA6_Qoqg/o.jpg", "is_closed": false, "url": "https://www.yelp.com/biz/foraged-baltimore?adjust_creative=gcWurbqhaNOmVD7ZGHDSeg&utm_campaign=yelp_api_v3&utm_medium=api_v3_business_search&utm_source=gcWurbqhaNOmVD7ZGHDSeg", "review_count": 7, "categories": [{"alias": "newamerican", "title": "American (New)"}], "rating": 5.0, "coordinates": {"latitude": 39.3305979253772, "longitude": -76.629414550427}, "transactions": [], "location": {"address1": "3520 Chestnut Ave", "address2": "", "address3": null, "city": "Baltimore", "zip_code": "21211", "country": "US", "state": "MD", "display_address": ["3520 Chestnut Ave", "Baltimore, MD 21211"]}, "phone": "+14102350035", "display_phone": "(410) 235-0035", "distance": 3275.28748731489}, {"id": "EqWX1DsJdadn0E5rnPpARg", "alias": "cava-mezze-baltimore-baltimore-2", "name": "Cava Mezze - Baltimore", "image_url": "https://s3-media2.fl.yelpcdn.com/bphoto/AXzF0Zoczz43UlNdojQf5Q/o.jpg", "is_closed": false, "url": "https://www.yelp.com/biz/cava-mezze-baltimore-baltimore-2?adjust_creative=gcWurbqhaNOmVD7ZGHDSeg&utm_campaign=yelp_api_v3&utm_medium=api_v3_business_search&utm_source=gcWurbqhaNOmVD7ZGHDSeg", "review_count": 452, "categories": [{"alias": "mediterranean", "title": "Mediterranean"}, {"alias": "vegan", "title": "Vegan"}, {"alias": "breakfast_brunch", "title": "Breakfast & Brunch"}], "rating": 4.5, "coordinates": {"latitude": 39.2843691436516, "longitude": -76.598579814216}, "transactions": ["restaurant_reservation", "pickup"], "price": "$$", "location": {"address1": "1302 Fleet St", "address2": "", "address3": "", "city": "Baltimore", "zip_code": "21202", "country": "US", "state": "MD", "display_address": ["1302 Fleet St", "Baltimore, MD 21202"]}, "phone": "+14434999090", "display_phone": "(443) 499-9090", "distance": 2572.8143374030856}], "total": 1800, "region": {"center": {"longitude": -76.61727905273438, "latitude": 39.302678883837295}}}